{"businesses": [{"id": "HHtpR0RslupSQ99GIIwW5A", "alias": "marufuku-ramen-san-francisco-5", "name": "Marufuku Ramen", "image_url": "https://s3-media4.fl.yelpcdn.com/bphoto/ouK2VmW0SrI70jsJpTxJhw/o.jpg", "is_closed": false, "url": "https://www.yelp.com/biz/marufuku-ramen-san-francisco-5?adjust_creative=0NHqnUd7_ZSdojrjWbj-qg&utm_campaign=yelp_api_v3&utm_medium=api_v3_business_search&utm_source=0NHqnUd7_ZSdojrjWbj-qg", "review_count": 3475, "categories": [{"alias": "ramen", "title": "Ramen"}], "rating": 4.5, "coordinates": {"latitude": 37.78520111708754, "longitude": -122.43200834862841}, "transactions": ["pickup", "delivery"], "price": "$$", "location": {"address1": "1581 Webster St", "address2": "Ste 235", "address3": null, "city": "San Francisco", "zip_code": "94115", "country": "US", "state": "CA", "display_address": ["1581 Webster St", "Ste 235", "San Francisco, CA 94115"]}, "phone": "+14158729786", "display_phone": "(415) 872-9786", "distance": 2730.244177861569}, {"id": "A5ESM2x9LL6x_pzPHiWBrw", "alias": "kitchen-woori-san-francisco", "name": "Kitchen Woori", "image_url": "https://s3-media2.fl.yelpcdn.com/bphoto/sX0OL2LSfsqhg0rLh1ncLw/o.jpg", "is_closed": false, "url": "https://www.yelp.com/biz/kitchen-woori-san-francisco?adjust_creative=0NHqnUd7_ZSdojrjWbj-qg&utm_campaign=yelp_api_v3&utm_medium=api_v3_business_search&utm_source=0NHqnUd7_ZSdojrjWbj-qg", "review_count": 36, "categories": [{"alias": "korean", "title": "Korean"}], "rating": 5.0, "coordinates": {"latitude": 37.78387, "longitude": -122.433015}, "transactions": ["pickup", "delivery"], "location": {"address1": "1545 Fillmore St", "address2": null, "address3": "", "city": "San Francisco", "zip_code": "94115", "country": "US", "state": "CA", "display_address": ["1545 Fillmore St", "San Francisco, CA 94115"]}, "phone": "+14158293159", "display_phone": "(415) 829-3159", "distance": 2569.4757940077266}, {"id": "KA-P3d2NcbJy5SQN-vCzPA", "alias": "aria-korean-street-food-san-francisco", "name": "Aria Korean Street Food", "image_url": "https://s3-media1.fl.yelpcdn.com/bphoto/GLvMxRbJGeeEs5PR6h7ucQ/o.jpg", "is_closed": false, "url": "https://www.yelp.com/biz/aria-korean-street-food-san-francisco?adjust_creative=0NHqnUd7_ZSdojrjWbj-qg&utm_campaign=yelp_api_v3&utm_medium=api_v3_business_search&utm_source=0NHqnUd7_ZSdojrjWbj-qg", "review_count": 1034, "categories": [{"alias": "korean", "title": "Korean"}, {"alias": "chickenshop", "title": "Chicken Shop"}, {"alias": "tacos", "title": "Tacos"}], "rating": 4.0, "coordinates": {"latitude": 37.78655, "longitude": -122.41795}, "transactions": ["pickup", "delivery"], "price": "$$", "location": {"address1": "932 Larkin St", "address2": "", "address3": "", "city": "San Francisco", "zip_code": "94109", "country": "US", "state": "CA", "display_address": ["932 Larkin St", "San Francisco, CA 94109"]}, "phone": "+14152926914", "display_phone": "(415) 292-6914", "distance": 3283.920698230426}, {"id": "XAYwAF_83becwNnSJDFkpA", "alias": "dumpling-house-san-francisco", "name": "Dumpling House", "image_url": "https://s3-media2.fl.yelpcdn.com/bphoto/DNfqq1zYxbJ-gsalml7wng/o.jpg", "is_closed": false, "url": "https://www.yelp.com/biz/dumpling-house-san-francisco?adjust_creative=0NHqnUd7_ZSdojrjWbj-qg&utm_campaign=yelp_api_v3&utm_medium=api_v3_business_search&utm_source=0NHqnUd7_ZSdojrjWbj-qg", "review_count": 251, "categories": [{"alias": "dimsum", "title": "Dim Sum"}, {"alias": "asianfusion", "title": "Asian Fusion"}], "rating": 4.5, "coordinates": {"latitude": 37.763552, "longitude": -122.432762}, "transactions": ["pickup", "delivery"], "price": "$$", "location": {"address1": "335 Noe St", "address2": "", "address3": null, "city": "San Francisco", "zip_code": "94114", "country": "US", "state": "CA", "display_address": ["335 Noe St", "San Francisco, CA 94114"]}, "phone": "+14158292789", "display_phone": "(415) 829-2789", "distance": 436.04221561234874}, {"id": "dY0Mc_PHH6nLENvWmVtwxQ", "alias": "daeho-kalbijjim-and-beef-soup-san-francisco-9", "name": "Daeho Kalbijjim & Beef Soup", "image_url": "https://s3-media4.fl.yelpcdn.com/bphoto/HzzU5aVz-eUYJIPdnNGL0A/o.jpg", "is_closed": false, "url": "https://www.yelp.com/biz/daeho-kalbijjim-and-beef-soup-san-francisco-9?adjust_creative=0NHqnUd7_ZSdojrjWbj-qg&utm_campaign=yelp_api_v3&utm_medium=api_v3_business_search&utm_source=0NHqnUd7_ZSdojrjWbj-qg", "review_count": 1157, "categories": [{"alias": "korean", "title": "Korean"}, {"alias": "soup", "title": "Soup"}, {"alias": "noodles", "title": "Noodles"}], "rating": 4.5, "coordinates": {"latitude": 37.78601, "longitude": -122.42858}, "transactions": ["pickup", "delivery"], "price": "$$$", "location": {"address1": "1620 Post St", "address2": "", "address3": null, "city": "San Francisco", "zip_code": "94115", "country": "US", "state": "CA", "display_address": ["1620 Post St", "San Francisco, CA 94115"]}, "phone": "+14155631388", "display_phone": "(415) 563-1388", "distance": 2867.8335670207744}, {"id": "SO7w-fN6uIBUEzkakrcxoQ", "alias": "ushi-taro-ramen-san-francisco-3", "name": "Ushi Taro Ramen", "image_url": "https://s3-media1.fl.yelpcdn.com/bphoto/WvJPkuX4ipW7QdmOzHMbzA/o.jpg", "is_closed": false, "url": "https://www.yelp.com/biz/ushi-taro-ramen-san-francisco-3?adjust_creative=0NHqnUd7_ZSdojrjWbj-qg&utm_campaign=yelp_api_v3&utm_medium=api_v3_business_search&utm_source=0NHqnUd7_ZSdojrjWbj-qg", "review_count": 294, "categories": [{"alias": "ramen", "title": "Ramen"}], "rating": 4.5, "coordinates": {"latitude": 37.7625462134757, "longitude": -122.466102987528}, "transactions": ["pickup", "delivery"], "price": "$$", "location": {"address1": "1382 9th Ave", "address2": "", "address3": null, "city": "San Francisco", "zip_code": "94122", "country": "US", "state": "CA", "display_address": ["1382 9th Ave", "San Francisco, CA 94122"]}, "phone": "+14157026014", "display_phone": "(415) 702-6014", "distance": 2613.3690556023816}, {"id": "OOlS_RmdMk1LHtgOQWoHoA", "alias": "tanglad-san-francisco", "name": "Tanglad", "image_url": "https://s3-media3.fl.yelpcdn.com/bphoto/jzNmvepv5zG5fbBOXfmtWw/o.jpg", "is_closed": false, "url": "https://www.yelp.com/biz/tanglad-san-francisco?adjust_creative=0NHqnUd7_ZSdojrjWbj-qg&utm_campaign=yelp_api_v3&utm_medium=api_v3_business_search&utm_source=0NHqnUd7_ZSdojrjWbj-qg", "review_count": 142, "categories": [{"alias": "vietnamese", "title": "Vietnamese"}], "rating": 4.5, "coordinates": {"latitude": 37.761492, "longitude": -122.434844}, "transactions": ["pickup", "delivery"], "price": "$$", "location": {"address1": "469 Castro St", "address2": null, "address3": "", "city": "San Francisco", "zip_code": "94114", "country": "US", "state": "CA", "display_address": ["469 Castro St", "San Francisco, CA 94114"]}, "phone": "+14156243238", "display_phone": "(415) 624-3238", "distance": 159.10650212292109}, {"id": "BI40rGhpngLNPacrjWpseQ", "alias": "dumpling-kitchen-san-francisco", "name": "Dumpling Kitchen", "image_url": "https://s3-media1.fl.yelpcdn.com/bphoto/rggI1HG_kaABtAGNiuqF9Q/o.jpg", "is_closed": false, "url": "https://www.yelp.com/biz/dumpling-kitchen-san-francisco?adjust_creative=0NHqnUd7_ZSdojrjWbj-qg&utm_campaign=yelp_api_v3&utm_medium=api_v3_business_search&utm_source=0NHqnUd7_ZSdojrjWbj-qg", "review_count": 1754, "categories": [{"alias": "chinese", "title": "Chinese"}], "rating": 4.0, "coordinates": {"latitude": 37.7423, "longitude": -122.48701}, "transactions": ["pickup", "delivery"], "price": "$$", "location": {"address1": "1935 Taraval St", "address2": "", "address3": "", "city": "San Francisco", "zip_code": "94116", "country": "US", "state": "CA", "display_address": ["1935 Taraval St", "San Francisco, CA 94116"]}, "phone": "+14156828938", "display_phone": "(415) 682-8938", "distance": 4904.15624633216}, {"id": "-DrR38H1Abk0wCyu9XOLug", "alias": "sweet-maple-san-francisco", "name": "Sweet Maple", "image_url": "https://s3-media2.fl.yelpcdn.com/bphoto/etyS0Af-PS74CTwxly2uoA/o.jpg", "is_closed": false, "url": "https://www.yelp.com/biz/sweet-maple-san-francisco?adjust_creative=0NHqnUd7_ZSdojrjWbj-qg&utm_campaign=yelp_api_v3&utm_medium=api_v3_business_search&utm_source=0NHqnUd7_ZSdojrjWbj-qg", "review_count": 4117, "categories": [{"alias": "tradamerican", "title": "American (Traditional)"}, {"alias": "breakfast_brunch", "title": "Breakfast & Brunch"}, {"alias": "burgers", "title": "Burgers"}], "rating": 4.5, "coordinates": {"latitude": 37.785735681426, "longitude": -122.43507770852}, "transactions": ["restaurant_reservation", "pickup", "delivery"], "price": "$$", "location": {"address1": "2101 Sutter St", "address2": "", "address3": "", "city": "San Francisco", "zip_code": "94115", "country": "US", "state": "CA", "display_address": ["2101 Sutter St", "San Francisco, CA 94115"]}, "phone": "+14156559169", "display_phone": "(415) 655-9169", "distance": 2764.2882648857435}, {"id": "8u7pyRsCdf0DOP-Vg6MuLQ", "alias": "purple-rice-san-francisco", "name": "Purple Rice", "image_url": "https://s3-media1.fl.yelpcdn.com/bphoto/IlTN8YP7QfKme9-ulpeLSg/o.jpg", "is_closed": false, "url": "https://www.yelp.com/biz/purple-rice-san-francisco?adjust_creative=0NHqnUd7_ZSdojrjWbj-qg&utm_campaign=yelp_api_v3&utm_medium=api_v3_business_search&utm_source=0NHqnUd7_ZSdojrjWbj-qg", "review_count": 154, "categories": [{"alias": "korean", "title": "Korean"}, {"alias": "bbq", "title": "Barbeque"}, {"alias": "asianfusion", "title": "Asian Fusion"}], "rating": 4.5, "coordinates": {"latitude": 37.771917, "longitude": -122.430753}, "transactions": ["pickup", "delivery"], "price": "$$", "location": {"address1": "509 Haight St", "address2": null, "address3": "", "city": "San Francisco", "zip_code": "94117", "country": "US", "state": "CA", "display_address": ["509 Haight St", "San Francisco, CA 94117"]}, "phone": "+14159326257", "display_phone": "(415) 932-6257", "distance": 1325.1838754735893}, {"id": "IoTaMS3mnLh5vq4nfW1y_A", "alias": "hot-johnnie-s-san-francisco", "name": "HOT JOHNNIE\u2019S", "image_url": "https://s3-media3.fl.yelpcdn.com/bphoto/TOUJq4da4Lu-fnlouerIhg/o.jpg", "is_closed": false, "url": "https://www.yelp.com/biz/hot-johnnie-s-san-francisco?adjust_creative=0NHqnUd7_ZSdojrjWbj-qg&utm_campaign=yelp_api_v3&utm_medium=api_v3_business_search&utm_source=0NHqnUd7_ZSdojrjWbj-qg", "review_count": 121, "categories": [{"alias": "newamerican", "title": "American (New)"}, {"alias": "delis", "title": "Delis"}, {"alias": "sandwiches", "title": "Sandwiches"}], "rating": 5.0, "coordinates": {"latitude": 37.76083883893122, "longitude": -122.4344859}, "transactions": ["pickup", "delivery"], "price": "$$", "location": {"address1": "4077 18th St", "address2": null, "address3": "", "city": "San Francisco", "zip_code": "94114", "country": "US", "state": "CA", "display_address": ["4077 18th St", "San Francisco, CA 94114"]}, "phone": "+14156243171", "display_phone": "(415) 624-3171", "distance": 172.53974199177622}, {"id": "vth2jtXfVUCRJeIP680CyA", "alias": "udon-mugizo-san-francisco-11", "name": "Udon Mugizo", "image_url": "https://s3-media3.fl.yelpcdn.com/bphoto/7M2QWfxKnGU8qCMl1edeMQ/o.jpg", "is_closed": false, "url": "https://www.yelp.com/biz/udon-mugizo-san-francisco-11?adjust_creative=0NHqnUd7_ZSdojrjWbj-qg&utm_campaign=yelp_api_v3&utm_medium=api_v3_business_search&utm_source=0NHqnUd7_ZSdojrjWbj-qg", "review_count": 1011, "categories": [{"alias": "japanese", "title": "Japanese"}, {"alias": "noodles", "title": "Noodles"}], "rating": 4.0, "coordinates": {"latitude": 37.78501, "longitude": -122.431741}, "transactions": ["pickup", "delivery"], "price": "$$", "location": {"address1": "1581 Webster St", "address2": "Ste 217", "address3": "", "city": "San Francisco", "zip_code": "94115", "country": "US", "state": "CA", "display_address": ["1581 Webster St", "Ste 217", "San Francisco, CA 94115"]}, "phone": "+14159313118", "display_phone": "(415) 931-3118", "distance": 2712.696327480518}, {"id": "sJrlDmxVymCJ6AMS1GzBrg", "alias": "ken-san-francisco", "name": "Ken", "image_url": "https://s3-media3.fl.yelpcdn.com/bphoto/XaAd8iD6XJf-TqoSBK0K0Q/o.jpg", "is_closed": false, "url": "https://www.yelp.com/biz/ken-san-francisco?adjust_creative=0NHqnUd7_ZSdojrjWbj-qg&utm_campaign=yelp_api_v3&utm_medium=api_v3_business_search&utm_source=0NHqnUd7_ZSdojrjWbj-qg", "review_count": 31, "categories": [{"alias": "japanese", "title": "Japanese"}, {"alias": "sushi", "title": "Sushi Bars"}], "rating": 5.0, "coordinates": {"latitude": 37.77152, "longitude": -122.43688}, "transactions": [], "location": {"address1": "252 Divisadero St", "address2": "", "address3": null, "city": "San Francisco", "zip_code": "94117", "country": "US", "state": "CA", "display_address": ["252 Divisadero St", "San Francisco, CA 94117"]}, "phone": "+16288677113", "display_phone": "(628) 867-7113", "distance": 1180.762397923404}, {"id": "eYXwVR4mMAjzkJnm5wneHQ", "alias": "burma-superstar-san-francisco-2", "name": "Burma Superstar", "image_url": "https://s3-media4.fl.yelpcdn.com/bphoto/Rt-zOS-uNY0cafsq1UeoDw/o.jpg", "is_closed": false, "url": "https://www.yelp.com/biz/burma-superstar-san-francisco-2?adjust_creative=0NHqnUd7_ZSdojrjWbj-qg&utm_campaign=yelp_api_v3&utm_medium=api_v3_business_search&utm_source=0NHqnUd7_ZSdojrjWbj-qg", "review_count": 6976, "categories": [{"alias": "burmese", "title": "Burmese"}], "rating": 4.0, "coordinates": {"latitude": 37.782787322998, "longitude": -122.462539672852}, "transactions": ["pickup", "delivery"], "price": "$$", "location": {"address1": "309 Clement St", "address2": "", "address3": "", "city": "San Francisco", "zip_code": "94118", "country": "US", "state": "CA", "display_address": ["309 Clement St", "San Francisco, CA 94118"]}, "phone": "+14153872147", "display_phone": "(415) 387-2147", "distance": 3348.056372269087}, {"id": "ayhsCE7JrE0dBGuRjGlGrQ", "alias": "katsuya-san-francisco", "name": "Katsuya", "image_url": "https://s3-media4.fl.yelpcdn.com/bphoto/-qU6CwCDWYRKUGWFsHzdkw/o.jpg", "is_closed": false, "url": "https://www.yelp.com/biz/katsuya-san-francisco?adjust_creative=0NHqnUd7_ZSdojrjWbj-qg&utm_campaign=yelp_api_v3&utm_medium=api_v3_business_search&utm_source=0NHqnUd7_ZSdojrjWbj-qg", "review_count": 101, "categories": [{"alias": "japanese", "title": "Japanese"}], "rating": 4.5, "coordinates": {"latitude": 37.79098, "longitude": -122.40384}, "transactions": ["pickup", "delivery"], "price": "$$", "location": {"address1": "380 Bush St", "address2": null, "address3": "", "city": "San Francisco", "zip_code": "94104", "country": "US", "state": "CA", "display_address": ["380 Bush St", "San Francisco, CA 94104"]}, "phone": "+14157570404", "display_phone": "(415) 757-0404", "distance": 4399.044792482979}, {"id": "sk2OH92GwQjFKbguoFWHSw", "alias": "uncle-tito-san-francisco", "name": "Uncle Tito", "image_url": "https://s3-media2.fl.yelpcdn.com/bphoto/mDRwwCchwP3ZiTa22ub-5g/o.jpg", "is_closed": false, "url": "https://www.yelp.com/biz/uncle-tito-san-francisco?adjust_creative=0NHqnUd7_ZSdojrjWbj-qg&utm_campaign=yelp_api_v3&utm_medium=api_v3_business_search&utm_source=0NHqnUd7_ZSdojrjWbj-qg", "review_count": 14, "categories": [{"alias": "filipino", "title": "Filipino"}, {"alias": "comfortfood", "title": "Comfort Food"}, {"alias": "asianfusion", "title": "Asian Fusion"}], "rating": 4.5, "coordinates": {"latitude": 37.776902, "longitude": -122.415244}, "transactions": [], "location": {"address1": "59 9th St", "address2": null, "address3": "", "city": "San Francisco", "zip_code": "94103", "country": "US", "state": "CA", "display_address": ["59 9th St", "San Francisco, CA 94103"]}, "phone": "", "display_phone": "", "distance": 2580.057010628164}, {"id": "M0JTO3oyu6gxh1mfFjU-dA", "alias": "san-tung-san-francisco-2", "name": "San Tung", "image_url": "https://s3-media4.fl.yelpcdn.com/bphoto/7_OgNG0Elk6AHlSoZ2L26Q/o.jpg", "is_closed": false, "url": "https://www.yelp.com/biz/san-tung-san-francisco-2?adjust_creative=0NHqnUd7_ZSdojrjWbj-qg&utm_campaign=yelp_api_v3&utm_medium=api_v3_business_search&utm_source=0NHqnUd7_ZSdojrjWbj-qg", "review_count": 7285, "categories": [{"alias": "chinese", "title": "Chinese"}, {"alias": "chicken_wings", "title": "Chicken Wings"}, {"alias": "noodles", "title": "Noodles"}], "rating": 4.0, "coordinates": {"latitude": 37.76378306790313, "longitude": -122.46900735179602}, "transactions": ["delivery"], "price": "$$", "location": {"address1": "1031 Irving St", "address2": "", "address3": "", "city": "San Francisco", "zip_code": "94122", "country": "US", "state": "CA", "display_address": ["1031 Irving St", "San Francisco, CA 94122"]}, "phone": "+14152420828", "display_phone": "(415) 242-0828", "distance": 2880.1394717686867}, {"id": "Lg2v9ttl1CGLBCdW0RV27A", "alias": "pasta-brothers-san-francisco", "name": "Pasta Brothers", "image_url": "https://s3-media2.fl.yelpcdn.com/bphoto/-ED-sb5kR8YebY_F_XSkhw/o.jpg", "is_closed": false, "url": "https://www.yelp.com/biz/pasta-brothers-san-francisco?adjust_creative=0NHqnUd7_ZSdojrjWbj-qg&utm_campaign=yelp_api_v3&utm_medium=api_v3_business_search&utm_source=0NHqnUd7_ZSdojrjWbj-qg", "review_count": 12, "categories": [{"alias": "pastashops", "title": "Pasta Shops"}], "rating": 4.5, "coordinates": {"latitude": 37.78580131077999, "longitude": -122.439781}, "transactions": [], "location": {"address1": "1734 Divisadero St", "address2": null, "address3": "", "city": "San Francisco", "zip_code": "94115", "country": "US", "state": "CA", "display_address": ["1734 Divisadero St", "San Francisco, CA 94115"]}, "phone": "+14155254002", "display_phone": "(415) 525-4002", "distance": 2784.425382562383}, {"id": "WOVHQYzSAdyXYOiYDTmujQ", "alias": "the-bird-san-francisco", "name": "The Bird", "image_url": "https://s3-media1.fl.yelpcdn.com/bphoto/hzCuGZbkMWWJyX79UKfl7w/o.jpg", "is_closed": false, "url": "https://www.yelp.com/biz/the-bird-san-francisco?adjust_creative=0NHqnUd7_ZSdojrjWbj-qg&utm_campaign=yelp_api_v3&utm_medium=api_v3_business_search&utm_source=0NHqnUd7_ZSdojrjWbj-qg", "review_count": 2094, "categories": [{"alias": "chickenshop", "title": "Chicken Shop"}, {"alias": "sandwiches", "title": "Sandwiches"}], "rating": 4.0, "coordinates": {"latitude": 37.78724, "longitude": -122.39995}, "transactions": ["pickup", "delivery"], "price": "$", "location": {"address1": "115 New Montgomery St", "address2": null, "address3": "", "city": "San Francisco", "zip_code": "94105", "country": "US", "state": "CA", "display_address": ["115 New Montgomery St", "San Francisco, CA 94105"]}, "phone": "+14158729825", "display_phone": "(415) 872-9825", "distance": 4334.402024411518}, {"id": "ECGj_uOTX47MayVCLZei4g", "alias": "bread-n-chu-san-francisco", "name": "Bread N\u2019 Chu", "image_url": "https://s3-media2.fl.yelpcdn.com/bphoto/7ZPIUCqn4WtQkoZm560FVA/o.jpg", "is_closed": false, "url": "https://www.yelp.com/biz/bread-n-chu-san-francisco?adjust_creative=0NHqnUd7_ZSdojrjWbj-qg&utm_campaign=yelp_api_v3&utm_medium=api_v3_business_search&utm_source=0NHqnUd7_ZSdojrjWbj-qg", "review_count": 250, "categories": [{"alias": "sandwiches", "title": "Sandwiches"}, {"alias": "coffee", "title": "Coffee & Tea"}], "rating": 4.0, "coordinates": {"latitude": 37.782407, "longitude": -122.479713}, "transactions": ["pickup", "delivery"], "price": "$$", "location": {"address1": "1900 Clement St", "address2": null, "address3": "", "city": "San Francisco", "zip_code": "94121", "country": "US", "state": "CA", "display_address": ["1900 Clement St", "San Francisco, CA 94121"]}, "phone": "+14157026556", "display_phone": "(415) 702-6556", "distance": 4495.495422784255}], "total": 240, "region": {"center": {"longitude": -122.43644714355469, "latitude": 37.76089938976322}}}